[
    {   "bankId":1,
        "name": "NBE ATM",
        "location": {"latitude": 31.2714586, "longitude": 32.2883124},
        "address": "23 of July St - El, 23-Jul, حى, El Manakh",
        "rating": 4
    },
    {    "bankId":1,
        "name": "ATM machine to the National Bank of Egypt",
        "location": {"latitude": 31.2444924, "longitude": 32.2918062},
        "address": "67VR+QPW, El Sharq",
        "rating": 4.3
    },
    {   "bankId":1,
        "name": "National Bank of Egypt",
        "location": {"latitude": 31.2640437, "longitude": 32.3114562},
        "address": "7876+JH8, El Sharq",
        "rating": 3.7
    },
    {"bankId":1,
        "name": "NBE ATM - 23 July Branch 2",
        "location": {"latitude": 31.267077, "longitude": 32.311965},
        "address": "26 23th July St, 26 23-Jul",
        "rating": 5
    },
    {"bankId":1,
        "name": "NBE ATM - Port Fouad Branch 2",
        "location": {"latitude": 31.2538609, "longitude": 32.3201553},
        "address": "El Safa St. - Beside Naval Shipyard, Port Said",
        "rating": 0
    },
    {"bankId":1,
        "name": "NBE ATM - WE - Mansheya (Port Said)",
        "location": {"latitude": 31.2612559, "longitude": 32.307485},
        "address": "El-Mansheya Square, El Sharq",
        "rating": 0
    },
    {"bankId":1,
        "name": "NBE ATM - Port Said Tax Directorate",
        "location": {"latitude": 31.2690247, "longitude": 32.302987},
        "address": "23 July Street - Downtown, 23-Jul, وسط المدينة",
        "rating": 0
    },
    {"bankId":1,
        "name": "NBE ATM - Port said Elementary Court",
        "location": {"latitude": 31.2665003, "longitude": 32.3030553},
        "address": "Mohamed Ali St - El shohada square - Port Said",
        "rating": 5
    },
    {"bankId":1,
        "name": "NBE ATM",
        "location": {"latitude": 31.2463689, "longitude": 32.3192836},
        "address": "El-Galaa, Port Fouad City",
        "rating": 2
    },
    {"bankId":1,
        "name": "NBE ATM - Misr Petroleum Port Said",
        "location": {"latitude": 31.2368718, "longitude": 32.3002559},
        "address": "مستودع البترول، El Nasr St. - Mostwdaa Petrol، النصر",
        "rating": 0
    },
    {"bankId":1,
        "name": "NBE ATM - el Nasr central hospital - Port Said",
        "location": {"latitude": 31.2675826, "longitude": 32.2771741},
        "address": "El-Nasr Road - el monakh neighborhood - al arab division، طريق النصر، حى المناخ, Al Arab",
        "rating": 3.7
    },
    {"bankId":1,
        "name": "NBE ATM - Port Said Branch 1",
        "location": {"latitude": 31.2638591, "longitude": 32.3111263},
        "address": "52 El Gomhoureya St, 52 El-Gomhoreya, El Sharq",
        "rating": 0
    },
    {"bankId":1,
        "name": "NBE ATM - Port Said Branch 3",
        "location": {"latitude": 31.2638656, "longitude": 32.3111313},
        "address": "52 El Gomhoureya Street, 52 El-Gomhoreya, El Sharq",
        "rating": 0
    },
    {"bankId":1,
        "name": "NBE ATM - Branch 23 July 3",
        "location": {"latitude": 31.2670751, "longitude": 32.3119761},
        "address": "بجوار القنصلية الصينية, Sea Subtraction Street next to the Chinese Consulate, Tarh Al Bahr",
        "rating": 0
    },
    {"bankId":1,
        "name": "البنك الاهلي ATM",
        "location": {"latitude": 31.2497722, "longitude": 32.2602605},
        "address": "بجوار كلية الطب",
        "rating": 5
    },
    { "bankId":1,
        "name": "ATM - NBE",
        "location": {"latitude": 31.2364185, "longitude": 32.3179475},
        "address": "68P9+H58, Port Fouad City",
        "rating": 1
    },
    {"bankId":1,
        "name": "NBE ATM, Port Said General Hospital",
        "location": {"latitude": 31.2639861, "longitude": 32.3049599},
        "address": "7873+HXW, Safeya Zaghloul, Port Fouad City",
        "rating": 5
    },
    {"bankId":1,
        "name": "NBE ATM - Fauclty of Nursing Port Said Universtiy",
        "location": {"latitude": 31.2679326, "longitude": 32.2984948},
        "address": "حى العرب, Al Arab",
        "rating": 0
    },
    {"bankId":1,
        "name": "ATM - البنك الاهلي المصري",
        "location": {"latitude": 31.2588554, "longitude": 32.29723},
        "address": "775W+GWJ, Al Shohadaa, El Sharq",
        "rating": 4
    },
    {"bankId":1,
        "name": "NBE ATM - Sun Mall Port Said",
        "location": {"latitude": 31.2692369, "longitude": 32.2994278},
        "address": "23 July St., - In Front of Al Harbi Museum ش 23 يوليو - أمام المتحف الحربى",
        "rating": 0
    },
    {"bankId":1,
        "name": "اورنج اكسبيريس - ماكينة البنك الأهلي",
        "location": {"latitude": 31.2546629, "longitude": 32.2779549},
        "address": "شارع العبور أبراج الحاسب الالي",
        "rating": 4
    },
    {"bankId":1,
        "name": "ماكينة صراف الي البنك الاهلي المصري",
        "location": {"latitude": 31.2445433, "longitude": 32.2918665},
        "address": "شارع محمد علي بجوار التنمية الصناعية",
        "rating": 4.3
    },
    {"bankId":1,
        "name": "البنك الأهلي المصري-ماكينة محطة وطنية ببورسعيد",
        "location": {"latitude": 31.2474247, "longitude": 32.2906063},
        "address": "شارع محمد علي",
        "rating": 0
    },
    {"bankId":1,
        "name": "البنك الاهلى",
        "location": {"latitude": 31.2601976, "longitude": 32.3031718},
        "address": "الدائرة الجمركية بورسعيد، محافظة بورسعيد",
        "rating": 4
    },
    {"bankId":1,
        "name": "NBE ATM - Alwatex Company -Port Said",
        "location": {"latitude": 31.2143849, "longitude": 32.2914591},
        "address": "بور فؤاد، محافظة بورسعيد",
        "rating": 0
    },
    {"bankId":1,
        "name": "البنك الاهلي المصري فرع الكويت ببورسعيد",
        "location": {"latitude": 31.2617636, "longitude": 32.2881652},
        "address": "حي الكويت",
        "rating": 3.3
    },
    {"bankId":1,
        "name": "إي جي بنك - سنترال الزهور- المصرية للاتصالات ATM",
        "location": {"latitude": 31.2654606, "longitude": 32.304793},
        "address": "المصرية للإتصالات - ش عثمان بن عفان, حي, الزهور، محافظة بورسعيد",
        "rating": 0
    },
    {"bankId":1,
        "name": "البنك الاهلى المصري فرع الجمرك",
        "location": {"latitude": 31.2603414, "longitude": 32.3044765},
        "address": "شارع صلاح سالم، منطقة الجمرك، محافظة بورسعيد",
        "rating": 0
    },
    {"bankId":1,
        "name": "البنك الاهلى المصري فرع 23 يوليو",
        "location": {"latitude": 31.2688669, "longitude": 32.3111785},
        "address": "بحي شرق، طرح البحر، قسم الشرق، محافظة بورسعيد",
        "rating": 0
    },
    {"bankId":1,
        "name": "NBE ATM - University Administration Port Fouad",
        "location": {"latitude": 31.2456346, "longitude": 32.3060925},
        "address": "جامعة بورسعيد حي بورفؤاد",
        "rating": 5
    }
]
